{"type":"FeatureCollection","features":[{"type":"Feature","geometry":{"type":"Point","coordinates":[139.761,35.7126]},"properties":{"name":"The University of Tokyo (Hongo)","city":"Bunkyō","pref":"Tokyo","level":"university"}},{"type":"Feature","geometry":{"type":"Point","coordinates":[135.7808,35.026]},"properties":{"name":"Kyoto University (Yoshida)","city":"Kyoto","pref":"Kyoto","level":"university"}},{"type":"Feature","geometry":{"type":"Point","coordinates":[135.4562,34.8099]},"properties":{"name":"Osaka University (Toyonaka)","city":"Toyonaka","pref":"Osaka","level":"university"}},{"type":"Feature","geometry":{"type":"Point","coordinates":[141.3389,43.0769]},"properties":{"name":"Hokkaido University","city":"Sapporo","pref":"Hokkaidō","level":"university"}},{"type":"Feature","geometry":{"type":"Point","coordinates":[140.8677,38.2592]},"properties":{"name":"Tohoku University (Kawauchi)","city":"Sendai","pref":"Miyagi","level":"university"}},{"type":"Feature","geometry":{"type":"Point","coordinates":[136.966,35.1545]},"properties":{"name":"Nagoya University","city":"Nagoya","pref":"Aichi","level":"university"}},{"type":"Feature","geometry":{"type":"Point","coordinates":[130.2278,33.5983]},"properties":{"name":"Kyushu University (Ito)","city":"Fukuoka","pref":"Fukuoka","level":"university"}},{"type":"Feature","geometry":{"type":"Point","coordinates":[139.705,35.708]},"properties":{"name":"Waseda University","city":"Shinjuku","pref":"Tokyo","level":"university"}},{"type":"Feature","geometry":{"type":"Point","coordinates":[139.7447,35.648]},"properties":{"name":"Keio University (Mita)","city":"Minato","pref":"Tokyo","level":"university"}},{"type":"Feature","geometry":{"type":"Point","coordinates":[139.6849,35.6056]},"properties":{"name":"Tokyo Institute of Technology (Ookayama)","city":"Meguro","pref":"Tokyo","level":"university"}},{"type":"Feature","geometry":{"type":"Point","coordinates":[132.742,34.4075]},"properties":{"name":"Hiroshima University (Higashi-Hiroshima)","city":"Higashihiroshima","pref":"Hiroshima","level":"university"}},{"type":"Feature","geometry":{"type":"Point","coordinates":[135.2367,34.7273]},"properties":{"name":"Kobe University (Rokkodai)","city":"Kobe","pref":"Hyōgo","level":"university"}},{"type":"Feature","geometry":{"type":"Point","coordinates":[140.1046,35.6256]},"properties":{"name":"Chiba University","city":"Chiba","pref":"Chiba","level":"university"}},{"type":"Feature","geometry":{"type":"Point","coordinates":[139.603,35.4775]},"properties":{"name":"Yokohama National University","city":"Yokohama","pref":"Kanagawa","level":"university"}},{"type":"Feature","geometry":{"type":"Point","coordinates":[140.1049,36.1102]},"properties":{"name":"University of Tsukuba","city":"Tsukuba","pref":"Ibaraki","level":"university"}},{"type":"Feature","geometry":{"type":"Point","coordinates":[133.9183,34.6844]},"properties":{"name":"Okayama University","city":"Okayama","pref":"Okayama","level":"university"}},{"type":"Feature","geometry":{"type":"Point","coordinates":[136.6776,36.5442]},"properties":{"name":"Kanazawa University (Kakuma)","city":"Kanazawa","pref":"Ishikawa","level":"university"}},{"type":"Feature","geometry":{"type":"Point","coordinates":[130.7237,32.8048]},"properties":{"name":"Kumamoto University","city":"Kumamoto","pref":"Kumamoto","level":"university"}},{"type":"Feature","geometry":{"type":"Point","coordinates":[139.0179,37.8656]},"properties":{"name":"Niigata University (Ikarashi)","city":"Niigata","pref":"Niigata","level":"university"}},{"type":"Feature","geometry":{"type":"Point","coordinates":[137.9713,36.2399]},"properties":{"name":"Shinshu University (Matsumoto)","city":"Matsumoto","pref":"Nagano","level":"university"}},{"type":"Feature","geometry":{"type":"Point","coordinates":[139.7699,35.7377]},"properties":{"name":"Kaisei High School","city":"Arakawa","pref":"Tokyo","level":"high_school"}},{"type":"Feature","geometry":{"type":"Point","coordinates":[135.2595,34.7199]},"properties":{"name":"Nada High School","city":"Kobe","pref":"Hyōgo","level":"high_school"}},{"type":"Feature","geometry":{"type":"Point","coordinates":[139.4882,35.5168]},"properties":{"name":"Toin Gakuen High School","city":"Yokohama","pref":"Kanagawa","level":"high_school"}},{"type":"Feature","geometry":{"type":"Point","coordinates":[141.3475,43.0417]},"properties":{"name":"Sapporo Minami High School","city":"Sapporo","pref":"Hokkaidō","level":"high_school"}},{"type":"Feature","geometry":{"type":"Point","coordinates":[140.8815,38.2772]},"properties":{"name":"Sendai Second High School","city":"Sendai","pref":"Miyagi","level":"high_school"}},{"type":"Feature","geometry":{"type":"Point","coordinates":[138.3767,34.9779]},"properties":{"name":"Shizuoka High School","city":"Shizuoka","pref":"Shizuoka","level":"high_school"}},{"type":"Feature","geometry":{"type":"Point","coordinates":[136.2226,36.0678]},"properties":{"name":"Fukui Prefectural Fujishima High School","city":"Fukui","pref":"Fukui","level":"high_school"}},{"type":"Feature","geometry":{"type":"Point","coordinates":[131.6121,33.2372]},"properties":{"name":"Oita Uenogaoka High School","city":"Ōita","pref":"Ōita","level":"high_school"}},{"type":"Feature","geometry":{"type":"Point","coordinates":[140.7393,41.8077]},"properties":{"name":"Hakodate La Salle Junior & Senior HS","city":"Hakodate","pref":"Hokkaidō","level":"high_school"}},{"type":"Feature","geometry":{"type":"Point","coordinates":[127.6811,26.2134]},"properties":{"name":"Naha High School","city":"Naha","pref":"Okinawa","level":"high_school"}},{"type":"Feature","geometry":{"type":"Point","coordinates":[138.1956,36.6616]},"properties":{"name":"Nagano High School","city":"Nagano","pref":"Nagano","level":"high_school"}},{"type":"Feature","geometry":{"type":"Point","coordinates":[140.47,36.3662]},"properties":{"name":"Mito First High School","city":"Mito","pref":"Ibaraki","level":"high_school"}},{"type":"Feature","geometry":{"type":"Point","coordinates":[140.7474,40.8243]},"properties":{"name":"Aomori High School","city":"Aomori","pref":"Aomori","level":"high_school"}},{"type":"Feature","geometry":{"type":"Point","coordinates":[130.545,31.5865]},"properties":{"name":"Kagoshima Prefectural Konan High School","city":"Kagoshima","pref":"Kagoshima","level":"high_school"}},{"type":"Feature","geometry":{"type":"Point","coordinates":[132.7654,33.8462]},"properties":{"name":"Matsuyama Higashi High School","city":"Matsuyama","pref":"Ehime","level":"high_school"}},{"type":"Feature","geometry":{"type":"Point","coordinates":[134.2179,35.505]},"properties":{"name":"Tottori Nishi High School","city":"Tottori","pref":"Tottori","level":"high_school"}},{"type":"Feature","geometry":{"type":"Point","coordinates":[140.1217,39.7195]},"properties":{"name":"Akita High School","city":"Akita","pref":"Akita","level":"high_school"}},{"type":"Feature","geometry":{"type":"Point","coordinates":[135.178,34.2317]},"properties":{"name":"Wakayama Higashi High School","city":"Wakayama","pref":"Wakayama","level":"high_school"}},{"type":"Feature","geometry":{"type":"Point","coordinates":[140.354,38.2527]},"properties":{"name":"Yamagata Higashi High School","city":"Yamagata","pref":"Yamagata","level":"high_school"}}]}